[
  {
    "id": "r001",
    "title": "Kustroute Walcheren \u2013 Domburg & Westkapelle",
    "type": "Fiets",
    "distance_km": 28,
    "duration_min": 110,
    "difficulty": "Makkelijk",
    "surface": [
      "Asfalt",
      "Fietspad"
    ],
    "island": "Walcheren",
    "start": {
      "lat": 51.5667,
      "lng": 3.4385
    },
    "gpx_url": "/data/gpx/r001.gpx",
    "image": "https://images.unsplash.com/photo-1500530855697-b586d89ba3ee?q=80&w=1200&auto=format&fit=crop"
  },
  {
    "id": "r002",
    "title": "Duinwandeling Westkapelle \u2013 Vuurtorens",
    "type": "Wandel",
    "distance_km": 10,
    "duration_min": 120,
    "difficulty": "Gemiddeld",
    "surface": [
      "Duinpad",
      "Strand"
    ],
    "island": "Walcheren",
    "start": {
      "lat": 51.5286,
      "lng": 3.444
    },
    "gpx_url": "/data/gpx/r002.gpx",
    "image": "https://images.unsplash.com/photo-1502082553048-f009c37129b9?q=80&w=1200&auto=format&fit=crop"
  },
  {
    "id": "r003",
    "title": "Oosterschelde Rond \u2013 Kamperland",
    "type": "Fiets",
    "distance_km": 44,
    "duration_min": 180,
    "difficulty": "Gemiddeld",
    "surface": [
      "Asfalt",
      "Dijkweg"
    ],
    "island": "Noord-Beveland",
    "start": {
      "lat": 51.5702,
      "lng": 3.7133
    },
    "gpx_url": "/data/gpx/r003.gpx",
    "image": "https://images.unsplash.com/photo-1441974231531-c6227db76b6e?q=80&w=1200&auto=format&fit=crop"
  },
  {
    "id": "r004",
    "title": "Bos & Duin \u2013 Westerschouwen MTB",
    "type": "MTB",
    "distance_km": 14,
    "duration_min": 75,
    "difficulty": "Zwaar",
    "surface": [
      "Bos",
      "Zand"
    ],
    "island": "Schouwen-Duiveland",
    "start": {
      "lat": 51.6912,
      "lng": 3.6701
    },
    "gpx_url": "/data/gpx/r004.gpx",
    "image": "https://images.unsplash.com/photo-1500534314209-a25ddb2bd429?q=80&w=1200&auto=format&fit=crop"
  },
  {
    "id": "r005",
    "title": "Zeelandbrug Gravel \u2013 Zierikzee",
    "type": "Gravel",
    "distance_km": 36,
    "duration_min": 150,
    "difficulty": "Gemiddeld",
    "surface": [
      "Gravel",
      "Asfalt"
    ],
    "island": "Schouwen-Duiveland",
    "start": {
      "lat": 51.6532,
      "lng": 3.919
    },
    "gpx_url": "/data/gpx/r005.gpx",
    "image": "https://images.unsplash.com/photo-1477414348463-c0eb7f1359b6?q=80&w=1200&auto=format&fit=crop"
  },
  {
    "id": "r006",
    "title": "Zak van Zuid-Beveland Bloesemtocht",
    "type": "Wandel",
    "distance_km": 12,
    "duration_min": 150,
    "difficulty": "Makkelijk",
    "surface": [
      "Kleiweg",
      "Fietspad"
    ],
    "island": "Zuid-Beveland",
    "start": {
      "lat": 51.4576,
      "lng": 3.884
    },
    "gpx_url": "/data/gpx/r006.gpx",
    "image": "https://images.unsplash.com/photo-1519681393784-d120267933ba?q=80&w=1200&auto=format&fit=crop"
  }
]